{
  "cities": [
    {
      "cityName": "Lisbon",
      "country": "Portugal",
      "emoji": "ðŸ‡µðŸ‡¹",
      "date": "2027-10-31T15:59:59.138Z",
      "notes": "My favorite city so far!",
      "position": {
        "lat": 38.727881642324164,
        "lng": -9.140900099907554
      },
      "id": "73930385"
    },
    {
      "cityName": "Madrid",
      "country": "Spain",
      "emoji": "ðŸ‡ªðŸ‡¸",
      "date": "2027-07-15T08:22:53.976Z",
      "notes": "",
      "position": {
        "lat": 40.46635901755316,
        "lng": -3.7133789062500004
      },
      "id": "17806751"
    },
    {
      "cityName": "Jakarta",
      "country": "Indonesia",
      "emoji": "ðŸ‡®ðŸ‡©",
      "date": "2028-03-01T10:00:00.000Z",
      "notes": "Capital city of Indonesia, bustling with activity!",
      "position": {
        "lat": -6.2088,
        "lng": 106.8456
      },
      "id": "12345678"
    },
    {
      "cityName": "Tokyo",
      "country": "Japan",
      "emoji": "ðŸ‡¯ðŸ‡µ",
      "date": "2028-06-20T11:15:00.000Z",
      "notes": "A modern city blending tradition and innovation.",
      "position": {
        "lat": 35.6762,
        "lng": 139.6503
      },
      "id": "34567890"
    },
    {
      "cityName": "Kyoto",
      "country": "Japan",
      "emoji": "ðŸ‡¯ðŸ‡µ",
      "date": "2028-08-10T14:45:00.000Z",
      "notes": "Historical city with beautiful temples.",
      "position": {
        "lat": 35.0116,
        "lng": 135.7681
      },
      "id": "45678901"
    },
    {
      "id": "195b",
      "cityName": "Ubud",
      "country": "Indonesia",
      "emoji": "ðŸ‡®ðŸ‡©",
      "date": "2024-12-18T08:19:14.019Z",
      "notes": "kapan kapan",
      "position": {
        "lat": "-8.508365660860031",
        "lng": "115.25379180908205"
      }
    }
  ]
}